[
  {
    "Name": "Monellis",
    "mScore": "8.5",
    "Location": "Hastings",
    "Lat": "50.8555897",
    "Lon": "0.5878908",
    "Country": "England",
    "Date": "19/10/2024",
    "Price": "£13.50",
    "Crust": "9",
    "Dough": "9",
    "Sauce": "9",
    "Cheese": "9",
    "Basil": "5",
    "Sliced": "5",
    "Sloppiness": "8",
    "Saltiness": "8",
    "Oiliness": "9"
  },
  {
    "Name": "Slice of Life",
    "mScore": "8.3",
    "Location": "Busan",
    "Lat": "35.1731121",
    "Lon": "129.0714122",
    "Country": "South Korea",
    "Date": "10/10/2025",
    "Price": "£11.14",
    "Crust": "7",
    "Dough": "8",
    "Sauce": "8",
    "Cheese": "9",
    "Basil": "10",
    "Sliced": "10",
    "Sloppiness": "9",
    "Saltiness": "8",
    "Oiliness": "9"
  },
  {
    "Name": "Pizzarelli",
    "mScore": "8",
    "Location": "St Leonards-on-Sea",
    "Lat": "50.8510778",
    "Lon": "0.5571361",
    "Country": "England",
    "Date": "22/08/2025",
    "Price": "£11.99",
    "Crust": "8",
    "Dough": "7",
    "Sauce": "8",
    "Cheese": "9",
    "Basil": "5",
    "Sliced": "10",
    "Sloppiness": "9",
    "Saltiness": "8",
    "Oiliness": "9"
  },
  {
    "Name": "Le Bellini",
    "mScore": "8",
    "Location": "Toulouse",
    "Lat": "43.6039846",
    "Lon": "1.4427967",
    "Country": "France",
    "Date": "23/09/2024",
    "Price": "£10.80",
    "Crust": "9",
    "Dough": "8",
    "Sauce": "8",
    "Cheese": "8",
    "Basil": "5",
    "Sliced": "5",
    "Sloppiness": "9",
    "Saltiness": "8",
    "Oiliness": "8"
  },
  {
    "Name": "La Pizza",
    "mScore": "7.6",
    "Location": "València",
    "Lat": "39.4703695",
    "Lon": "-0.3787153",
    "Country": "Spain",
    "Date": "30/08/2025",
    "Price": "£10.82",
    "Crust": "8",
    "Dough": "7",
    "Sauce": "8",
    "Cheese": "7",
    "Basil": "10",
    "Sliced": "0",
    "Sloppiness": "8",
    "Saltiness": "8",
    "Oiliness": "8"
  },
  {
    "Name": "Brewing Brothers",
    "mScore": "7.4",
    "Location": "Hastings",
    "Lat": "50.854259",
    "Lon": "0.573453",
    "Country": "England",
    "Date": "25/04/2025",
    "Price": "£9.50",
    "Crust": "8",
    "Dough": "7",
    "Sauce": "9",
    "Cheese": "7",
    "Basil": "0",
    "Sliced": "10",
    "Sloppiness": "7",
    "Saltiness": "8",
    "Oiliness": "7"
  },
  {
    "Name": "The Crust",
    "mScore": "7.3",
    "Location": "Bude",
    "Lat": "50.8290493",
    "Lon": "-4.5446109",
    "Country": "England",
    "Date": "13/08/2024",
    "Price": "£12.00",
    "Crust": "8",
    "Dough": "8",
    "Sauce": "7",
    "Cheese": "7",
    "Basil": "5",
    "Sliced": "5",
    "Sloppiness": "7",
    "Saltiness": "8",
    "Oiliness": "7"
  },
  {
    "Name": "Rustico",
    "mScore": "7.2",
    "Location": "Hastings",
    "Lat": "50.8548904",
    "Lon": "0.5771708",
    "Country": "England",
    "Date": "03/05/2025",
    "Price": "£9.50",
    "Crust": "8",
    "Dough": "7",
    "Sauce": "8",
    "Cheese": "6",
    "Basil": "5",
    "Sliced": "5",
    "Sloppiness": "7",
    "Saltiness": "8",
    "Oiliness": "8"
  },
  {
    "Name": "Dough Ray Me",
    "mScore": "7",
    "Location": "St Leonards-on-Sea",
    "Lat": "50.8521625",
    "Lon": "0.5609777",
    "Country": "England",
    "Date": "17/07/2025",
    "Price": "£11.00",
    "Crust": "7",
    "Dough": "7",
    "Sauce": "8",
    "Cheese": "6",
    "Basil": "5",
    "Sliced": "5",
    "Sloppiness": "7",
    "Saltiness": "8",
    "Oiliness": "7"
  },
  {
    "Name": "Homeslice",
    "mScore": "6.9",
    "Location": "City of London",
    "Lat": "51.5122136",
    "Lon": "-0.0924927",
    "Country": "England",
    "Date": "02/02/2026",
    "Price": "£14.00",
    "Crust": "7",
    "Dough": "7",
    "Sauce": "8",
    "Cheese": "7",
    "Basil": "5",
    "Sliced": "5",
    "Sloppiness": "6",
    "Saltiness": "7",
    "Oiliness": "6"
  },
  {
    "Name": "Tredici",
    "mScore": "6.7",
    "Location": "Cannes",
    "Lat": "43.5503134",
    "Lon": "7.0098032",
    "Country": "France",
    "Date": "09/08/2025",
    "Price": "£14.00",
    "Crust": "7",
    "Dough": "6",
    "Sauce": "8",
    "Cheese": "6",
    "Basil": "5",
    "Sliced": "0",
    "Sloppiness": "7",
    "Saltiness": "8",
    "Oiliness": "7"
  },
  {
    "Name": "Magpie",
    "mScore": "6.6",
    "Location": "Seoul",
    "Lat": "37.550263",
    "Lon": "126.9970831",
    "Country": "South Korea",
    "Date": "07/10/2025",
    "Price": "£12.14",
    "Crust": "6",
    "Dough": "6",
    "Sauce": "7",
    "Cheese": "7",
    "Basil": "5",
    "Sliced": "10",
    "Sloppiness": "7",
    "Saltiness": "7",
    "Oiliness": "6"
  },
  {
    "Name": "La Saporita",
    "mScore": "6.4",
    "Location": "St Leonards-on-Sea",
    "Lat": "50.8552458",
    "Lon": "0.5840028",
    "Country": "England",
    "Date": "31/10/2025",
    "Price": "£9.95",
    "Crust": "6",
    "Dough": "6",
    "Sauce": "7",
    "Cheese": "7",
    "Basil": "0",
    "Sliced": "10",
    "Sloppiness": "7",
    "Saltiness": "7",
    "Oiliness": "7"
  },
  {
    "Name": "The Rising Sun",
    "mScore": "6.2",
    "Location": "Chelmsford",
    "Lat": "51.7234811",
    "Lon": "0.4612164",
    "Country": "England",
    "Date": "01/02/2026",
    "Price": "£10.00",
    "Crust": "7",
    "Dough": "6",
    "Sauce": "7",
    "Cheese": "6",
    "Basil": "0",
    "Sliced": "10",
    "Sloppiness": "6",
    "Saltiness": "7",
    "Oiliness": "7"
  },
  {
    "Name": "Bellisimo",
    "mScore": "5.8",
    "Location": "Corfu",
    "Lat": "39.6251618",
    "Lon": "19.9209518",
    "Country": "Greece",
    "Date": "26/10/2024",
    "Price": "£8.33",
    "Crust": "5",
    "Dough": "6",
    "Sauce": "6",
    "Cheese": "6",
    "Basil": "0",
    "Sliced": "5",
    "Sloppiness": "7",
    "Saltiness": "8",
    "Oiliness": "7"
  },
  {
    "Name": "Marina Fountain",
    "mScore": "5.8",
    "Location": "St Leonards-on-Sea",
    "Lat": "50.8510704",
    "Lon": "0.5429339",
    "Country": "England",
    "Date": "16/10/2024",
    "Price": "£9.50",
    "Crust": "5",
    "Dough": "5",
    "Sauce": "6",
    "Cheese": "5",
    "Basil": "5",
    "Sliced": "10",
    "Sloppiness": "7",
    "Saltiness": "7",
    "Oiliness": "7"
  },
  {
    "Name": "The Boat House",
    "mScore": "5.8",
    "Location": "Christchurch",
    "Lat": "50.7313752",
    "Lon": "-1.776065",
    "Country": "England",
    "Date": "19/04/2025",
    "Price": "£14.00",
    "Crust": "5",
    "Dough": "6",
    "Sauce": "7",
    "Cheese": "6",
    "Basil": "0",
    "Sliced": "10",
    "Sloppiness": "5",
    "Saltiness": "6",
    "Oiliness": "6"
  },
  {
    "Name": "Wetherspoons",
    "mScore": "5.5",
    "Location": "Gatwick",
    "Lat": "51.1536621",
    "Lon": "-0.1820629",
    "Country": "England",
    "Date": "19/09/2024",
    "Price": "£13.25",
    "Crust": "6",
    "Dough": "6",
    "Sauce": "6",
    "Cheese": "6",
    "Basil": "0",
    "Sliced": "0",
    "Sloppiness": "7",
    "Saltiness": "5",
    "Oiliness": "6"
  },
  {
    "Name": "Casa de Pier",
    "mScore": "5.4",
    "Location": "St Leonards-on-Sea",
    "Lat": "50.8530708",
    "Lon": "0.5719546",
    "Country": "England",
    "Date": "16/05/2025",
    "Price": "£10.00",
    "Crust": "5",
    "Dough": "5",
    "Sauce": "6",
    "Cheese": "5",
    "Basil": "0",
    "Sliced": "10",
    "Sloppiness": "6",
    "Saltiness": "6",
    "Oiliness": "7"
  }
]